loggingTime,loggingSample,identifierForVendor,locationTimestamp_since1970,locationLatitude,locationLongitude,locationAltitude,locationSpeed,locationCourse,locationVerticalAccuracy,locationHorizontalAccuracy,accelerometerTimestamp_sinceReboot,accelerometerAccelerationX,accelerometerAccelerationY,accelerometerAccelerationZ,gyroTimestamp_sinceReboot,gyroRotationX,gyroRotationY,gyroRotationZ,motionTimestamp_sinceReboot,motionYaw,motionRoll,motionPitch,motionRotationRateX,motionRotationRateY,motionRotationRateZ,motionUserAccelerationX,motionUserAccelerationY,motionUserAccelerationZ,motionAttitudeReferenceFrame,motionQuaternionX,motionQuaternionY,motionQuaternionZ,motionQuaternionW,motionGravityX,motionGravityY,motionGravityZ,motionMagneticFieldX,motionMagneticFieldY,motionMagneticFieldZ,motionMagneticFieldCalibrationAccuracy,activityTimestamp_sinceReboot,activity,activityActivityConfidence,activityActivityStartDate,pedometerStartDate,pedometerNumberofSteps,pedometerDistance,pedometerFloorAscended,pedometerFloorDescended,pedometerEndDate,altimeterTimestamp_sinceReboot,altimeterReset,altimeterRelativeAltitude,altimeterPressure,IP_en0,IP_pdp_ip0,deviceOrientation,batteryState,batteryLevel,state
2016-12-15 12:00:32.063,1,CEDEEB1A-3C68-40D6-9507-F36E84055F9B,1481821231.000087,40.81012435726897,-73.96015707410309,79.59485,1.63,214.1015625,64,100,415040.033710625,-0.163299560546875,0.0528717041015625,-0.990264892578125,415040.002819625,-0.1796227586747924,0.06939452115641273,-0.1407288888508392,415040.0327896251,1.065633416403033,-0.1654719973188285,-0.08144369276897777,-0.1787722557783127,-0.16004978120327,-0.2367061227560043,0.07426712661981583,-0.01194145437330008,-0.02007202059030533,XArbitraryCorrectedZVertical,0.006996654019393385,-0.09173549772066965,0.5087023865293396,0.8560125742241523,-0.1641719043254852,0.08135368674993515,-0.9830712676048279,4.481793403625488,3.561215877532959,-25.7751350402832,2,415036.666017375,unknown,2,2016-12-15 12:00:31.879,null,0,0,0,0,null,415036.77715,0,-0.4397049,100.3792,0.0.0.0,21.117.122.86,1,1,0.97,0
2016-12-15 12:00:32.120,2,CEDEEB1A-3C68-40D6-9507-F36E84055F9B,1481821232.000088,40.81031521320418,-73.96038003272746,59.4762,1.84,240.1171875,64,100,415040.092399625,-0.199951171875,0.0730743408203125,-0.958709716796875,415040.072745625,-0.1669833961412763,0.0696661635876008,-0.200547747991763,415040.067751625,1.057385494504463,-0.1720535015276689,-0.08388013895131764,-0.1119996756315231,-0.04344544559717178,-0.2020547837018967,-0.04785612970590591,-0.02624091878533363,-0.001962823793292046,XArbitraryCorrectedZVertical,0.007231333327106689,-0.0951948225095569,0.5052084005910953,0.8577004870920296,-0.170603945851326,0.08378180861473083,-0.9817712903022766,4.343286991119385,3.710361957550049,-25.77780723571777,2,415036.666017375,unknown,2,2016-12-15 12:00:31.879,null,0,0,0,0,null,415036.77715,0,-0.4397049,100.3792,0.0.0.0,21.117.122.86,1,1,0.97,0
2016-12-15 12:00:32.199,3,CEDEEB1A-3C68-40D6-9507-F36E84055F9B,1481821232.000088,40.81031521320418,-73.96038003272746,59.4762,1.84,240.1171875,64,100,415040.150883625,-0.271331787109375,0.0674591064453125,-0.904693603515625,415040.107679625,-0.05548056972518474,-0.3909999849232536,0.1533243092263689,415040.137667625,1.062145951175135,-0.1975761917918647,-0.08549618988329803,-0.08482800424098969,-0.1771140098571777,0.1189429238438606,-0.06286182999610901,-0.02829368226230145,0.08252402395009995,XArbitraryCorrectedZVertical,0.01323586667126642,-0.1065032919121612,0.5071634340511654,0.8551415741307365,-0.1955762803554535,0.08539207279682159,-0.9769636988639832,3.531905174255371,3.831215858459473,-25.88385009765625,2,415036.666017375,unknown,2,2016-12-15 12:00:31.879,null,0,0,0,0,null,415036.77715,0,-0.4397049,100.3792,0.0.0.0,21.117.122.86,1,1,0.97,0
2016-12-15 12:00:32.226,4,CEDEEB1A-3C68-40D6-9507-F36E84055F9B,1481821232.000088,40.81031521320418,-73.96038003272746,59.4762,1.84,240.1171875,64,100,415040.2093426251,-0.1754913330078125,0.06884765625,-0.9211578369140625,415040.177620625,-0.1432346571204947,0.4176696790276341,0.1586991009383668,415040.172626625,1.067280703307113,-0.1998732097804659,-0.08970945414388642,-0.07782531529664993,0.2225177437067032,0.1739541441202164,-0.03615529835224152,-0.003544864011928439,0.07044993340969086,XArbitraryCorrectedZVertical,0.01228662034530135,-0.1085068175131583,0.5094754737367021,0.8535280025719431,-0.197746679186821,0.08958917856216431,-0.9761506319046021,3.491466999053955,3.865729331970215,-25.88420486450195,2,415036.666017375,unknown,2,2016-12-15 12:00:31.879,null,0,0,0,0,null,415036.77715,0,-0.4397049,100.3792,0.0.0.0,21.117.122.86,1,1,0.97,0
2016-12-15 12:00:32.286,5,CEDEEB1A-3C68-40D6-9507-F36E84055F9B,1481821232.000088,40.81031521320418,-73.96038003272746,59.4762,1.84,240.1171875,64,100,415040.267826625,-0.150970458984375,0.10894775390625,-0.978240966796875,415040.247537625,-0.165088290709576,0.6651226180345267,0.04325452979284897,415040.242543625,1.075938392848865,-0.1607337394306596,-0.09618675638477792,-0.08745521306991577,0.5825932621955872,0.07605211436748505,-0.004164653364568949,0.015396430157125,0.01373628620058298,XArbitraryCorrectedZVertical,-6.351403525796549e-05,-0.09341485695640746,0.513463026097033,0.853011946749335,-0.1593027561903,0.09603850543498993,-0.9825473427772522,3.990149974822998,3.92637038230896,-25.80287933349609,2,415036.666017375,unknown,2,2016-12-15 12:00:31.879,null,0,0,0,0,null,415036.77715,0,-0.4397049,100.3792,0.0.0.0,21.117.122.86,1,1,0.97,0
2016-12-15 12:00:32.356,6,CEDEEB1A-3C68-40D6-9507-F36E84055F9B,1481821232.000088,40.81031521320418,-73.96038003272746,59.4762,1.84,240.1171875,64,100,415040.326306625,-0.1168365478515625,0.11529541015625,-1.002212524414062,415040.282496625,-0.2207949628113084,0.4126331087740763,-0.05069247240133128,415040.312460625,1.072992794754022,-0.1369138265301859,-0.1065385878338222,-0.1886496990919113,0.2189206480979919,-0.08563884347677231,0.03030490130186081,0.005021484103053808,-0.01225881185382605,XArbitraryCorrectedZVertical,-0.01074305756041636,-0.08586049614506058,0.5123376407268369,0.8544136608285634,-0.1357126086950302,0.1063371598720551,-0.9850251078605652,5.048965454101562,4.214914321899414,-25.57085800170898,2,415036.666017375,unknown,2,2016-12-15 12:00:31.879,null,0,0,0,0,null,415036.77715,0,-0.4397049,100.3792,0.0.0.0,21.117.122.86,1,1,0.97,0
2016-12-15 12:00:32.438,7,CEDEEB1A-3C68-40D6-9507-F36E84055F9B,1481821232.000088,40.81031521320418,-73.96038003272746,59.4762,1.84,240.1171875,64,100,415040.384776625,-0.1328277587890625,0.0888214111328125,-1.003814697265625,415040.352389625,-0.2313203080715196,0.1947748136967982,-0.08254361272256995,415040.347395625,1.069395497385662,-0.131599185959536,-0.112717387407728,-0.1634580492973328,0.08792469650506973,-0.07014022767543793,0.01039184629917145,0.00324380025267601,0.001465504290536046,XArbitraryCorrectedZVertical,-0.0149089158469279,-0.08512679502538278,0.5108577165829665,0.8553102047822441,-0.1303869634866714,0.1124788522720337,-0.985062301158905,5.189192771911621,4.370750427246094,-25.51656532287598,2,415036.666017375,unknown,2,2016-12-15 12:00:31.879,null,0,0,0,0,null,415036.77715,0,-0.4397049,100.3792,0.0.0.0,21.117.122.86,1,1,0.97,0
2016-12-15 12:00:32.462,8,CEDEEB1A-3C68-40D6-9507-F36E84055F9B,1481821232.000088,40.81031521320418,-73.96038003272746,59.4762,1.84,240.1171875,64,100,415040.443248625,-0.143829345703125,0.059417724609375,-0.9897003173828125,415040.422329625,-0.2215851227067349,0.164552729014361,-0.004684766673558388,415040.417318625,1.066738062647468,-0.1301195184624813,-0.1211633678345481,-0.1527272611856461,0.03106996417045593,0.01508982945233583,0.001390506629832089,-0.04782330617308617,-0.009375279769301414,XArbitraryCorrectedZVertical,-0.01902978958169163,-0.08659870257529712,0.509820354450617,0.855699560598596,-0.1288013905286789,0.1208671256899834,-0.984277069568634,3.011722803115845,4.526470184326172,-26.27886962890625,2,415036.666017375,unknown,2,2016-12-15 12:00:31.879,null,0,0,0,0,null,415037.788167,0,-0.5055618,100.3799,0.0.0.0,21.117.122.86,1,1,0.97,0
2016-12-15 12:00:32.528,9,CEDEEB1A-3C68-40D6-9507-F36E84055F9B,1481821232.000088,40.81031521320418,-73.96038003272746,59.4762,1.84,240.1171875,64,100,415040.501719625,-0.089111328125,0.098297119140625,-0.9737091064453125,415040.492247625,-0.210463761994564,0.5034229334959676,0.07465266641266517,415040.487253625,1.067660099906345,-0.1176243286628819,-0.1282038688018501,-0.1331071257591248,0.3667940497398376,0.08052825927734375,0.01855082623660564,-0.01780657283961773,0.02110340259969234,XArbitraryCorrectedZVertical,-0.02520298823597365,-0.08303477072931625,0.5101525722304698,0.8556952665993742,-0.1163901835680008,0.1278529614210129,-0.9849400520324707,3.299634456634521,4.729343891143799,-26.20847320556641,2,415036.666017375,unknown,2,2016-12-15 12:00:31.879,null,0,0,0,0,null,415037.788167,0,-0.5055618,100.3799,0.0.0.0,21.117.122.86,1,1,0.97,0
2016-12-15 12:00:32.599,10,CEDEEB1A-3C68-40D6-9507-F36E84055F9B,1481821232.000088,40.81031521320418,-73.96038003272746,59.4762,1.84,240.1171875,64,100,415040.5601946251,-0.0981597900390625,0.112518310546875,-0.9447479248046875,415040.527204625,-0.3034405746036284,0.4363496235456679,0.1438168241347861,415040.522191625,1.071553330979978,-0.1034346263709271,-0.1334282369080014,-0.2142211645841599,0.3219789564609528,0.1583276838064194,0.02062174864113331,-0.03382003679871559,0.01276158355176449,XArbitraryCorrectedZVertical,-0.03091476106936868,-0.07833898344765718,0.5116555886630986,0.8550531210458572,-0.1023325622081757,0.1330326795578003,-0.9858145713806152,3.635543823242188,4.806082725524902,-26.1500072479248,2,415036.666017375,unknown,2,2016-12-15 12:00:31.879,null,0,0,0,0,null,415037.788167,0,-0.5055618,100.3799,0.0.0.0,21.117.122.86,1,1,0.97,0
2016-12-15 12:00:32.639,11,CEDEEB1A-3C68-40D6-9507-F36E84055F9B,1481821232.000088,40.81031521320418,-73.96038003272746,59.4762,1.84,240.1171875,64,100,415040.618670625,-0.06353759765625,0.16485595703125,-0.9417877197265625,415040.597121625,-0.4163942911815952,0.5861276674644873,0.04934411394142416,415040.592127625,1.077517685344158,-0.07749971016617577,-0.1540613223845596,-0.3390048742294312,0.4483940899372101,0.07013822346925735,0.01708744093775749,0.004018095787614584,0.05403761565685272,XArbitraryCorrectedZVertical,-0.04618650461127927,-0.07260734734389074,0.5137245024681696,0.8536287925482239,-0.07650516927242279,0.153452605009079,-0.9851899743080139,4.18084716796875,5.16942310333252,-25.9987678527832,2,415036.666017375,unknown,2,2016-12-15 12:00:31.879,null,0,0,0,0,null,415037.788167,0,-0.5055618,100.3799,0.0.0.0,21.117.122.86,1,1,0.97,0
2016-12-15 12:00:32.693,12,CEDEEB1A-3C68-40D6-9507-F36E84055F9B,1481821232.000088,40.81031521320418,-73.96038003272746,59.4762,1.84,240.1171875,64,100,415040.677118625,-0.0275421142578125,0.25994873046875,-0.973388671875,415040.632064625,-0.4258067014222622,0.65004593047137,0.03678145044730238,415040.662043625,1.080062708581027,-0.04098765325019998,-0.1787853282581153,-0.3205199241638184,0.5526881217956543,0.04919162765145302,0.008813635446131229,0.06949532032012939,0.02411223575472832,XArbitraryCorrectedZVertical,-0.06605891382482104,-0.06339755399655241,0.5135714522763771,0.8531478965913842,-0.04032303392887115,0.1778343915939331,-0.9832339286804199,4.947887897491455,5.702859878540039,-25.75139236450195,2,415036.666017375,unknown,2,2016-12-15 12:00:31.879,null,0,0,0,0,null,415037.788167,0,-0.5055618,100.3799,0.0.0.0,21.117.122.86,1,1,0.97,0
2016-12-15 12:00:32.754,13,CEDEEB1A-3C68-40D6-9507-F36E84055F9B,1481821232.000088,40.81031521320418,-73.96038003272746,59.4762,1.84,240.1171875,64,100,415040.735596625,0.0317840576171875,0.20623779296875,-1.043243408203125,415040.701968625,-0.272304759351185,0.6094188754099933,-0.01892655323497513,415040.696974625,1.080795023239588,-0.021611709704012,-0.1879204227185371,-0.2150679677724838,0.5079013705253601,0.005216608289629221,0.0262039452791214,0.06751716136932373,-0.005017171613872051,XArbitraryCorrectedZVertical,-0.07491334799292731,-0.05749145666094245,0.5130469754512029,0.8531503523318136,-0.0212295800447464,0.1868163347244263,-0.9821654558181763,5.373404026031494,5.956737518310547,-25.60824584960938,2,415036.666017375,unknown,2,2016-12-15 12:00:31.879,null,0,0,0,0,null,415037.788167,0,-0.5055618,100.3799,0.0.0.0,21.117.122.86,1,1,0.97,0
2016-12-15 12:00:32.835,14,CEDEEB1A-3C68-40D6-9507-F36E84055F9B,1481821232.000088,40.81031521320418,-73.96038003272746,59.4762,1.84,240.1171875,64,100,415040.794059625,0.020660400390625,0.23516845703125,-1.03717041015625,415040.771913625,-0.2259194173808389,0.1978646131935081,-0.06650792085087584,415040.766919625,1.076661231093116,-0.002146611793732037,-0.2006141496849257,-0.162283331155777,0.1059795320034027,-0.05728138610720634,0.04510282725095749,0.03534793853759766,-0.07364674657583237,XArbitraryCorrectedZVertical,-0.08542830667240717,-0.05225842654300369,0.5102182916841916,0.854194565719796,-0.002103558508679271,0.1992712020874023,-0.9799421429634094,6.315266132354736,6.46098518371582,-25.26878547668457,2,415036.666017375,unknown,2,2016-12-15 12:00:31.879,null,0,0,0,0,null,415037.788167,0,-0.5055618,100.3799,0.0.0.0,21.117.122.86,1,1,0.97,0
2016-12-15 12:00:32.869,15,CEDEEB1A-3C68-40D6-9507-F36E84055F9B,1481821232.000088,40.81031521320418,-73.96038003272746,59.4762,1.84,240.1171875,64,100,415040.852540625,-0.009796142578125,0.251708984375,-0.984375,415040.841810625,-0.1090005202558531,-0.00813382660132001,-0.004306864114876144,415040.836836625,1.076884439003699,-0.008970774948742617,-0.2111917734506636,-0.05302822962403297,-0.1585662961006165,0.01857133209705353,-0.004229145590215921,0.04824819415807724,-0.006678336299955845,XArbitraryCorrectedZVertical,-0.08819839691519378,-0.05787765306708643,0.510343656723911,0.8534755837742127,-0.008771342225372791,0.2096253484487534,-0.9777424335479736,6.2808518409729,6.683034896850586,-25.21956253051758,2,415036.666017375,unknown,2,2016-12-15 12:00:31.879,null,0,0,0,0,null,415037.788167,0,-0.5055618,100.3799,0.0.0.0,21.117.122.86,1,1,0.97,0
2016-12-15 12:00:32.930,16,CEDEEB1A-3C68-40D6-9507-F36E84055F9B,1481821232.000088,40.81031521320418,-73.96038003272746,59.4762,1.84,240.1171875,64,100,415040.911031625,0.0233306884765625,0.204010009765625,-0.9816436767578125,415040.876788625,-0.02606728706580459,0.1938304567742561,-0.02913391706103084,415040.871794625,1.077058508949368,-0.01020452460122584,-0.2112242293218153,0.03634969145059586,0.05295094847679138,-0.006217475980520248,0.01087782438844442,0.03889333829283714,-0.007017140276730061,XArbitraryCorrectedZVertical,-0.08789233624856714,-0.05842004726553997,0.5104714375569491,0.8533937817589446,-0.009977555833756924,0.2096570730209351,-0.9777240753173828,6.171679973602295,6.799686908721924,-25.21533203125,2,415036.666017375,unknown,2,2016-12-15 12:00:31.879,null,0,0,0,0,null,415037.788167,0,-0.5055618,100.3799,0.0.0.0,21.117.122.86,1,1,0.97,0
2016-12-15 12:00:32.996,17,CEDEEB1A-3C68-40D6-9507-F36E84055F9B,1481821232.000088,40.81031521320418,-73.96038003272746,59.4762,1.84,240.1171875,64,100,415040.969504625,-0.008026123046875,0.222137451171875,-0.943328857421875,415040.946703625,-0.06346286246047923,0.1051024513683042,0.07840000038251567,415040.941703625,1.080609941166153,-0.006308779938839588,-0.2109592938050905,0.01070299744606018,-0.0283247958868742,0.0938686728477478,-0.003428901778534055,0.007536181248724461,0.01698034256696701,XArbitraryCorrectedZVertical,-0.08867258863362285,-0.05684765916952553,0.5118208674423397,0.8526106469676291,-0.006168876308947802,0.20939801633358,-0.9778110384941101,6.262645721435547,6.780790328979492,-25.19798851013184,2,415036.666017375,unknown,2,2016-12-15 12:00:31.879,null,0,0,0,0,null,415037.788167,0,-0.5055618,100.3799,0.0.0.0,21.117.122.86,1,1,0.97,0
2016-12-15 12:00:33.078,18,CEDEEB1A-3C68-40D6-9507-F36E84055F9B,1481821232.000088,40.81031521320418,-73.96038003272746,59.4762,1.84,240.1171875,64,100,415041.027972625,0.0162353515625,0.22491455078125,-0.9481658935546875,415041.016620625,-0.1344422307815981,0.2177922486822441,0.1343977559913938,415041.011626625,1.088805399855525,-0.000792362703786879,-0.2144332430893239,-0.05389324575662613,0.0843813493847847,0.1434568911790848,0.01929838582873344,0.01097645610570908,0.04252653568983078,XArbitraryCorrectedZVertical,-0.09133740858075307,-0.05575889568653716,0.5149695311606245,0.8505026780215378,-0.0007742152665741742,0.212793692946434,-0.9770968556404114,6.321465969085693,6.776190757751465,-25.18453216552734,2,415036.666017375,unknown,2,2016-12-15 12:00:31.879,null,0,0,0,0,null,415037.788167,0,-0.5055618,100.3799,0.0.0.0,21.117.122.86,1,1,0.97,0
2016-12-15 12:00:33.104,19,CEDEEB1A-3C68-40D6-9507-F36E84055F9B,1481821233.000086,40.81028583463357,-73.96037626087103,67.77612,1.84,240.8203125,64,100,415041.086440625,-0.0116729736328125,0.2378082275390625,-0.9594879150390625,415041.051578625,-0.1666102872725562,0.1742130795525144,0.1481095734958848,415041.046585625,1.09482423574654,0.003241874881356636,-0.2185820062747839,-0.09343735873699188,0.05777252092957497,0.1711229979991913,-0.003820859827101231,0.02344982326030731,0.01105186063796282,XArbitraryCorrectedZVertical,-0.09397362107144729,-0.05539463232402002,0.5172222569235886,0.8488707382136024,0.003164731897413731,0.2168455868959427,-0.9762007594108582,6.444511890411377,6.808574199676514,-25.14458084106445,2,415036.666017375,unknown,2,2016-12-15 12:00:31.879,null,0,0,0,0,null,415037.788167,0,-0.5055618,100.3799,0.0.0.0,21.117.122.86,1,1,0.97,0
2016-12-15 12:00:33.162,20,CEDEEB1A-3C68-40D6-9507-F36E84055F9B,1481821233.000086,40.81028583463357,-73.96037626087103,67.77612,1.84,240.8203125,64,100,415041.144910625,0.0060272216796875,0.25323486328125,-0.989532470703125,415041.121495625,-0.183473689611047,0.3119847943289296,0.0525217977541067,415041.116501625,1.10270675080172,0.008658830932363557,-0.2301477253412412,-0.1103600785136223,0.185982882976532,0.07229042798280716,0.0006943402113392949,0.01882688514888287,-0.005102523136883974,XArbitraryCorrectedZVertical,-0.100057607106778,-0.05648337452773466,0.5199476979625381,0.8464351688378225,0.008430415764451027,0.228121355175972,-0.9735962152481079,6.636356830596924,7.080245494842529,-25.01933670043945,2,415036.666017375,unknown,2,2016-12-15 12:00:31.879,null,0,0,0,0,null,415037.788167,0,-0.5055618,100.3799,0.0.0.0,21.117.122.86,1,1,0.97,0
2016-12-15 12:00:33.236,21,CEDEEB1A-3C68-40D6-9507-F36E84055F9B,1481821233.000086,40.81028583463357,-73.96037626087103,67.77612,1.84,240.8203125,64,100,415041.203361625,-0.015777587890625,0.2482147216796875,-1.000091552734375,415041.191409625,-0.0663486638176891,0.3304636701846624,-0.09588471820332189,415041.186415625,1.104446126430152,0.01848446081222863,-0.2379148533317421,-0.009295537136495113,0.1863619238138199,-0.06337150186300278,-0.04730540886521339,0.02292922884225845,-0.03216446936130524,XArbitraryCorrectedZVertical,-0.1058466135334435,-0.05444034240767787,0.5199178472500282,0.8458830744452587,0.01796275936067104,0.2356767356395721,-0.9716655015945435,6.85098123550415,7.280029296875,-24.90388870239258,2,415036.666017375,unknown,2,2016-12-15 12:00:31.879,null,0,0,0,0,null,415037.788167,0,-0.5055618,100.3799,0.0.0.0,21.117.122.86,1,1,0.97,0
2016-12-15 12:00:33.315,22,CEDEEB1A-3C68-40D6-9507-F36E84055F9B,1481821233.000086,40.81028583463357,-73.96037626087103,67.77612,1.84,240.8203125,64,100,415041.261852625,0.0314178466796875,0.2304229736328125,-1.008193969726562,415041.261329625,-0.09139409597323028,0.1932632034620692,-0.08361606769354486,415041.256331625,1.098762538678564,0.03123488865520221,-0.2367276470430629,-0.01073117181658745,0.08850937336683273,-0.06376377493143082,0.004950007889419794,0.0002641885948833078,-0.03996022418141365,XArbitraryCorrectedZVertical,-0.1087959080946514,-0.04842750755999241,0.5168701745630883,0.8477402016776955,0.03035883046686649,0.2345228046178818,-0.9716364741325378,7.14745044708252,7.289387226104736,-24.81767845153809,2,415036.666017375,unknown,2,2016-12-15 12:00:31.879,null,0,0,0,0,null,415037.788167,0,-0.5055618,100.3799,0.0.0.0,21.117.122.86,1,1,0.97,0
2016-12-15 12:00:33.337,23,CEDEEB1A-3C68-40D6-9507-F36E84055F9B,1481821233.000086,40.81028583463357,-73.96037626087103,67.77612,1.84,240.8203125,64,100,415041.320303625,0.0518341064453125,0.2395782470703125,-0.9683380126953125,415041.296271625,-0.1043794031323476,0.2053741948353136,-0.1540699943315911,415041.291277625,1.095610028762203,0.03244589382977844,-0.2374525327500571,-0.03660263866186142,0.0729459822177887,-0.122578464448452,0.01023336499929428,0.01866358518600464,-0.01489931624382734,XArbitraryCorrectedZVertical,-0.1094910761875568,-0.04793015671509215,0.5154399555246287,0.8485493836903991,0.03152994066476822,0.2352274060249329,-0.9714288115501404,7.226089477539062,7.303664684295654,-24.79069328308105,2,415036.666017375,unknown,2,2016-12-15 12:00:31.879,null,0,0,0,0,null,415037.788167,0,-0.5055618,100.3799,0.0.0.0,21.117.122.86,1,1,0.97,0
2016-12-15 12:00:33.396,24,CEDEEB1A-3C68-40D6-9507-F36E84055F9B,1481821233.000086,40.81028583463357,-73.96037626087103,67.77612,1.84,240.8203125,64,100,415041.378763625,0.0436553955078125,0.2119293212890625,-0.95306396484375,415041.3662046251,-0.07910706965193171,0.1631023714847039,-0.2226048470881263,415041.361198625,1.083532080015324,0.03394585899790243,-0.2394913571019606,-0.002801094902679324,0.03388679027557373,-0.1996456831693649,0.01065420918166637,0.001408411771990359,0.02601383812725544,XArbitraryCorrectedZVertical,-0.1110272607292539,-0.04715295528584808,0.5101465055114286,0.8515868065542567,0.03297067061066628,0.2372085303068161,-0.9708991050720215,7.264799118041992,7.433820724487305,-24.74064254760742,2,415036.666017375,unknown,2,2016-12-15 12:00:31.879,null,0,0,0,0,null,415037.788167,0,-0.5055618,100.3799,0.0.0.0,21.117.122.86,1,1,0.97,0
2016-12-15 12:00:33.476,25,CEDEEB1A-3C68-40D6-9507-F36E84055F9B,1481821233.000086,40.81028583463357,-73.96037626087103,67.77612,1.84,240.8203125,64,100,415041.4372356251,0.0598297119140625,0.1995849609375,-0.95623779296875,415041.401162625,-0.1409616491301121,0.182398837795091,-0.2129144028296549,415041.396168625,1.076478299700436,0.03495540927593559,-0.2396537259216653,-0.05721259489655495,0.05108660459518433,-0.1995767503976822,0.0276197362691164,-0.03231865540146828,0.01831215992569923,XArbitraryCorrectedZVertical,-0.1115179595542923,-0.04637176875740694,0.5070775117669813,0.8533966257370564,0.03394947573542595,0.237366259098053,-0.9708268046379089,7.258422374725342,7.489809989929199,-24.72562217712402,2,415036.666017375,unknown,2,2016-12-15 12:00:31.879,null,0,0,0,0,null,415038.795125,0,-0.5617905,100.3806,0.0.0.0,21.117.122.86,1,1,0.97,0
2016-12-15 12:00:33.513,26,CEDEEB1A-3C68-40D6-9507-F36E84055F9B,1481821233.000086,40.81028583463357,-73.96037626087103,67.77612,1.84,240.8203125,64,100,415041.495727625,0.0193023681640625,0.21246337890625,-0.954833984375,415041.471078625,-0.2560078113765541,0.164013705209729,-0.08373537731038042,415041.466085625,1.067531009958588,0.03675916284561419,-0.2478345200242569,-0.1829558610916138,0.02956091985106468,-0.07254631072282791,0.008561458438634872,-0.04367558285593987,0.01615427806973457,XArbitraryCorrectedZVertical,-0.1156681723676693,-0.04717388751985524,0.5028364938392531,0.8553075228833569,0.03562799468636513,0.2453052252531052,-0.9687910079956055,7.31264066696167,7.628287315368652,-24.66724395751953,2,415036.666017375,unknown,2,2016-12-15 12:00:31.879,null,0,0,0,0,null,415038.795125,0,-0.5617905,100.3806,0.0.0.0,21.117.122.86,1,1,0.97,0
2016-12-15 12:00:33.573,27,CEDEEB1A-3C68-40D6-9507-F36E84055F9B,1481821233.000086,40.81028583463357,-73.96037626087103,67.77612,1.84,240.8203125,64,100,415041.554207625,0.0504302978515625,0.218994140625,-0.975830078125,415041.540994625,-0.240274121972475,0.392793357601313,-0.1095240977261627,415041.536000625,1.061313442365061,0.04379873857407467,-0.2515322683274736,-0.1650457680225372,0.2604427933692932,-0.09619120508432388,0.008221735246479511,-0.04802160337567329,-0.008348786272108555,XArbitraryCorrectedZVertical,-0.1191533221824269,-0.04473035819781727,0.4996132315648076,0.8568478859831453,0.04240692779421806,0.248888298869133,-0.9676033854484558,7.409426689147949,7.894919395446777,-24.55420684814453,2,415036.666017375,unknown,2,2016-12-15 12:00:31.879,null,0,0,0,0,null,415038.795125,0,-0.5617905,100.3806,0.0.0.0,21.117.122.86,1,1,0.97,0
2016-12-15 12:00:33.640,28,CEDEEB1A-3C68-40D6-9507-F36E84055F9B,1481821233.000086,40.81028583463357,-73.96037626087103,67.77612,1.84,240.8203125,64,100,415041.612677625,0.05096435546875,0.2790985107421875,-0.979705810546875,415041.575942625,-0.2283977550912666,0.4375019733493452,-0.1232316541729096,415041.570959625,1.058430714964381,0.05353796994988082,-0.2557945690180641,-0.1573590189218521,0.3157358169555664,-0.09703782945871353,-0.006666260771453381,-0.01928007416427135,-0.01385832298547029,XArbitraryCorrectedZVertical,-0.1234636988481769,-0.04145516237170627,0.497606342327306,0.8575698879130096,0.05177124217152596,0.2530142068862915,-0.9660763740539551,7.604009628295898,7.97053050994873,-24.47014617919922,2,415036.666017375,unknown,2,2016-12-15 12:00:31.879,null,0,0,0,0,null,415038.795125,0,-0.5617905,100.3806,0.0.0.0,21.117.122.86,1,1,0.97,0
2016-12-15 12:00:33.716,29,CEDEEB1A-3C68-40D6-9507-F36E84055F9B,1481821233.000086,40.81028583463357,-73.96037626087103,67.77612,1.84,240.8203125,64,100,415041.671147625,0.1163787841796875,0.2897796630859375,-0.9981842041015625,415041.645847625,-0.1282248149006991,0.4536516485156947,-0.2225097722372104,415041.640853625,1.04601675803743,0.07705396314446496,-0.2648747717976185,-0.05816086381673813,0.3713531792163849,-0.210075318813324,0.05508611351251602,0.02246757224202156,-0.03441200032830238,XArbitraryCorrectedZVertical,-0.1333837730423189,-0.0328325654401067,0.4903408482086535,0.8606373477334484,0.07429315894842148,0.26178839802742,-0.9622615575790405,8.039166450500488,8.235480308532715,-24.24225807189941,2,415036.666017375,unknown,2,2016-12-15 12:00:31.879,null,0,0,0,0,null,415038.795125,0,-0.5617905,100.3806,0.0.0.0,21.117.122.86,1,1,0.97,0
2016-12-15 12:00:33.746,30,CEDEEB1A-3C68-40D6-9507-F36E84055F9B,1481821233.000086,40.81028583463357,-73.96037626087103,67.77612,1.84,240.8203125,64,100,415041.7296156251,0.136138916015625,0.2912750244140625,-1.027313232421875,415041.7157716251,-0.01588788643119472,-0.04542740292624462,-0.253349443976437,415041.710777625,1.032961006593421,0.07686946862749251,-0.2668560322576694,0.04988789558410645,-0.1426742970943451,-0.2270883768796921,0.04811673238873482,0.03499073535203934,-0.05806492269039154,XArbitraryCorrectedZVertical,-0.1344012355839948,-0.03252975310653437,0.4846270297984414,0.8637214626400656,0.07407565414905548,0.2637000679969788,-0.9617562294006348,8.249667167663574,8.451583862304688,-24.09672355651855,2,415036.666017375,unknown,2,2016-12-15 12:00:31.879,null,0,0,0,0,null,415038.795125,0,-0.5617905,100.3806,0.0.0.0,21.117.122.86,1,1,0.97,0
2016-12-15 12:00:33.805,31,CEDEEB1A-3C68-40D6-9507-F36E84055F9B,1481821233.000086,40.81028583463357,-73.96037626087103,67.77612,1.84,240.8203125,64,100,415041.788086625,0.101898193359375,0.2840728759765625,-0.9944915771484375,415041.750724625,0.01005236785061309,-0.2593780417360494,-0.2413875896242371,415041.745730625,1.024328426451375,0.06541490124211681,-0.2650598289267121,0.07792655378580093,-0.3554947376251221,-0.2290088832378387,0.07512871921062469,0.02650039829313755,-0.06416317075490952,XArbitraryCorrectedZVertical,-0.1310103529408536,-0.03646809469730092,0.4817408133968531,0.8656974957796921,0.06308539211750031,0.2619670033454895,-0.9630127549171448,8.12053108215332,8.461147308349609,-24.13719749450684,2,415036.666017375,unknown,2,2016-12-15 12:00:31.879,null,0,0,0,0,null,415038.795125,0,-0.5617905,100.3806,0.0.0.0,21.117.122.86,1,1,0.97,0
2016-12-15 12:00:33.876,32,CEDEEB1A-3C68-40D6-9507-F36E84055F9B,1481821233.000086,40.81028583463357,-73.96037626087103,67.77612,1.84,240.8203125,64,100,415041.846549625,0.0294342041015625,0.2299957275390625,-0.93695068359375,415041.820661625,0.09361357442570233,-0.3724907490310939,-0.02071886064859846,415041.8156676251,1.014991117256543,0.02789253657355709,-0.2579524216862253,0.1527296304702759,-0.5206699371337891,-0.01389013417065144,0.02207555063068867,0.03115362673997879,0.01875381916761398,XArbitraryCorrectedZVertical,-0.1191186607150288,-0.05041451695807318,0.4803388975707382,0.8674927461540528,0.02696619741618633,0.2551012635231018,-0.9665382504463196,7.418848037719727,8.427631378173828,-24.37363433837891,2,415036.666017375,unknown,2,2016-12-15 12:00:31.879,null,0,0,0,0,null,415038.795125,0,-0.5617905,100.3806,0.0.0.0,21.117.122.86,1,1,0.97,0
2016-12-15 12:00:33.957,33,CEDEEB1A-3C68-40D6-9507-F36E84055F9B,1481821233.000086,40.81028583463357,-73.96037626087103,67.77612,1.84,240.8203125,64,100,415041.905023625,0.0101318359375,0.2128143310546875,-0.9130096435546875,415041.890579625,0.06505516647623762,-0.1274362529019267,0.1234034280632197,415041.885583625,1.018770978440468,0.004568066818413532,-0.2462687094577511,0.1477339267730713,-0.2565316259860992,0.1281722337007523,0.006723947357386351,-0.04270663112401962,0.05058346316218376,XArbitraryCorrectedZVertical,-0.1083353726175562,-0.05791460139996129,0.4837025105896266,0.8665686511949421,0.004430227447301149,0.243786945939064,-0.9698187112808228,6.620320320129395,8.173810005187988,-24.68802642822266,2,415036.666017375,unknown,2,2016-12-15 12:00:31.879,null,0,0,0,0,null,415038.795125,0,-0.5617905,100.3806,0.0.0.0,21.117.122.86,1,1,0.97,0
2016-12-15 12:00:33.980,34,CEDEEB1A-3C68-40D6-9507-F36E84055F9B,1481821233.000086,40.81028583463357,-73.96037626087103,67.77612,1.84,240.8203125,64,100,415041.963462625,-0.0286407470703125,0.2311859130859375,-0.906646728515625,415041.960471625,-0.1767912858038201,-0.02390533289287827,0.2060676819831702,415041.955477625,1.033396215704131,-0.007943104974252898,-0.2442777530777294,-0.08986777067184448,-0.1765199899673462,0.2310382276773453,-0.01884308271110058,-0.01938243769109249,0.05452542379498482,XArbitraryCorrectedZVertical,-0.1039822235560999,-0.06361504003750934,0.4907485957426786,0.8627320787138811,-0.007707211188971996,0.241855576634407,-0.9702816605567932,6.215036869049072,7.88999080657959,-24.88493156433105,2,415041.951819625,unknown,2,2016-12-15 12:00:37.181,null,0,0,0,0,null,415038.795125,0,-0.5617905,100.3806,0.0.0.0,21.117.122.86,1,1,0.97,0
2016-12-15 12:00:34.039,35,CEDEEB1A-3C68-40D6-9507-F36E84055F9B,1481821233.000086,40.81028583463357,-73.96037626087103,67.77612,1.84,240.8203125,64,100,415042.021935625,-0.0330963134765625,0.2240142822265625,-0.884429931640625,415041.995427625,-0.2678889719477246,0.2234426775670652,0.1536465517182685,415041.990459625,1.040624851796363,-0.007753434106445883,-0.2495457633781495,-0.1863277852535248,0.06445873528718948,0.1796595752239227,-0.02790245600044727,-0.01571686938405037,0.06727743893861771,XArbitraryCorrectedZVertical,-0.1060670993896763,-0.06520723057972226,0.4937012689128081,0.8606723212588496,-0.007513193879276514,0.2469638139009476,-0.9689955711364746,6.134879589080811,7.907639503479004,-24.89921569824219,2,415041.951819625,unknown,2,2016-12-15 12:00:37.181,null,0,0,0,0,null,415038.795125,0,-0.5617905,100.3806,0.0.0.0,21.117.122.86,1,1,0.97,0
2016-12-15 12:00:34.115,36,CEDEEB1A-3C68-40D6-9507-F36E84055F9B,1481821234.000087,40.81020951740519,-73.96042202606235,79.20142,1.88,228.8671875,64,106.3369624497781,415042.080415625,-0.0351715087890625,0.2695159912109375,-0.8685150146484375,415042.0653696251,-0.3818877129374385,0.6989389049241348,0.01668177475214734,415042.060375625,1.048527134264749,0.01598759483187205,-0.2677719393018002,-0.3077877461910248,0.5388749837875366,0.05016706883907318,-0.0494748018682003,-0.0004843152419198304,0.09026189148426056,XArbitraryCorrectedZVertical,-0.1195201149998024,-0.05995969977580514,0.4951562023742903,0.8584521604396661,0.0154171846807003,0.2645834386348724,-0.9642395377159119,6.697975635528564,8.345919609069824,-24.6093692779541,2,415041.951819625,unknown,2,2016-12-15 12:00:37.181,null,0,0,0,0,null,415038.795125,0,-0.5617905,100.3806,0.0.0.0,21.117.122.86,1,1,0.97,0
2016-12-15 12:00:34.159,37,CEDEEB1A-3C68-40D6-9507-F36E84055F9B,1481821234.000087,40.81020951740519,-73.96042202606235,79.20142,1.88,228.8671875,64,106.3369624497781,415042.138891625,0.0789947509765625,0.2812957763671875,-0.886993408203125,415042.100309625,-0.3776173341294964,1.07607607110909,-0.09824294734858706,415042.095328625,1.048283427940036,0.04097952523433514,-0.2787533093299885,-0.3067836463451385,0.898997962474823,-0.06375792622566223,-0.06744757294654846,0.01440874487161636,0.07446842640638351,XArbitraryCorrectedZVertical,-0.1304046922862146,-0.0519477973846625,0.4930486800467904,0.8586029592779001,0.03938665613532066,0.2751573026180267,-0.9605920910835266,6.697975635528564,8.345919609069824,-24.6093692779541,2,415041.951819625,unknown,2,2016-12-15 12:00:37.181,null,0,0,0,0,null,415038.795125,0,-0.5617905,100.3806,0.0.0.0,21.117.122.86,1,1,0.97,0
2016-12-15 12:00:34.214,38,CEDEEB1A-3C68-40D6-9507-F36E84055F9B,1481821234.000087,40.81020951740519,-73.96042202606235,79.20142,1.88,228.8671875,64,106.3369624497781,415042.197358625,0.2089691162109375,0.3675537109375,-0.9852294921875,415042.170219625,-0.4189916721927495,1.307249372688437,0.06398324413748072,415042.165225625,1.045146549492456,0.1190765330842415,-0.3031536508251874,-0.3576601147651672,1.199599742889404,0.04960806667804718,0.04659490659832954,0.04105282202363014,0.03496748954057693,XArbitraryCorrectedZVertical,-0.1599709776302915,-0.02426037259252488,0.4847290313758636,0.8595687795511932,0.1133782342076302,0.2985315322875977,-0.9476414322853088,8.930627822875977,9.188573837280273,-23.57864189147949,2,415041.951819625,unknown,2,2016-12-15 12:00:37.181,null,0,0,0,0,null,415038.795125,0,-0.5617905,100.3806,0.0.0.0,21.117.122.86,1,1,0.97,0
2016-12-15 12:00:34.275,39,CEDEEB1A-3C68-40D6-9507-F36E84055F9B,1481821234.000087,40.81020951740519,-73.96042202606235,79.20142,1.88,228.8671875,64,106.3369624497781,415042.255828625,0.2163238525390625,0.378662109375,-0.999725341796875,415042.240160625,-0.265011959022112,0.4908746510717322,0.06712417632712017,415042.235166625,1.058358435986724,0.1808138220103666,-0.3213008704035706,-0.211927205324173,0.4202029407024384,0.1063076183199883,0.03217711299657822,0.06646205484867096,-0.09185018390417099,XArbitraryCorrectedZVertical,-0.1825079319313139,-0.003490764770246109,0.4838229739775091,0.8559170515856441,0.1706274449825287,0.3158011138439178,-0.9333573579788208,10.20971393585205,9.50788402557373,-22.92379188537598,2,415041.951819625,unknown,2,2016-12-15 12:00:37.181,null,0,0,0,0,null,415038.795125,0,-0.5617905,100.3806,0.0.0.0,21.117.122.86,1,1,0.97,0
2016-12-15 12:00:34.355,40,CEDEEB1A-3C68-40D6-9507-F36E84055F9B,1481821234.000087,40.81020951740519,-73.96042202606235,79.20142,1.88,228.8671875,64,106.3369624497781,415042.314292625,0.165740966796875,0.352508544921875,-0.9819183349609375,415042.275119625,-0.1401690923897045,0.2067076395931163,0.02005413564051468,415042.305082625,1.061937557563179,0.1896628180749685,-0.3267380481469982,-0.0101355966180563,-0.08404142409563065,-0.008940956555306911,0.002202034695073962,0.03138533234596252,-0.05133441835641861,XArbitraryCorrectedZVertical,-0.1869292121596303,-0.001422460041119267,0.4841015650258042,0.8548105760859589,0.178553581237793,0.320955365896225,-0.9301108717918396,10.8459300994873,9.728052139282227,-22.53595352172852,2,415041.951819625,unknown,2,2016-12-15 12:00:37.181,null,0,0,0,0,null,415038.795125,0,-0.5617905,100.3806,0.0.0.0,21.117.122.86,1,1,0.97,0
2016-12-15 12:00:34.389,41,CEDEEB1A-3C68-40D6-9507-F36E84055F9B,1481821234.000087,40.81020951740519,-73.96042202606235,79.20142,1.88,228.8671875,64,106.3369624497781,415042.372736625,0.202423095703125,0.3175811767578125,-0.9629974365234375,415042.345035625,-0.01228063473468239,-0.0461424616789309,-0.1187570109093584,415042.340041625,1.059488279281185,0.1842662739191561,-0.3262622802693079,0.05445719882845879,-0.1657009422779083,-0.09579290449619293,-0.001943978713825345,0.01553957909345627,-0.04942566901445389,XArbitraryCorrectedZVertical,-0.1854268300702087,-0.003380466528350048,0.483595087698956,0.8554187596082015,0.1735595762729645,0.3205047249794006,-0.9312109351158142,10.73350715637207,9.745386123657227,-22.58224105834961,2,415041.951819625,unknown,2,2016-12-15 12:00:37.181,null,0,0,0,0,null,415038.795125,0,-0.5617905,100.3806,0.0.0.0,21.117.122.86,1,1,0.97,0
2016-12-15 12:00:34.447,42,CEDEEB1A-3C68-40D6-9507-F36E84055F9B,1481821234.000087,40.81020951740519,-73.96042202606235,79.20142,1.88,228.8671875,64,106.3369624497781,415042.431215625,0.16363525390625,0.3321685791015625,-0.93609619140625,415042.414952625,-0.004731371992634775,-0.08697750962144288,-0.04414535717748048,415042.409958625,1.054816540903573,0.1714159041223846,-0.3216802389089696,0.06304419040679932,-0.2107603549957275,-0.02653846703469753,0.02858644723892212,0.002884962363168597,-0.02174144424498081,XArbitraryCorrectedZVertical,-0.180405376857488,-0.00728957297922674,0.4831296549640353,0.8567301200617676,0.1618279814720154,0.3161610662937164,-0.9348015189170837,10.53959178924561,9.690775871276855,-22.69679069519043,2,415041.951819625,unknown,2,2016-12-15 12:00:37.181,null,0,0,0,0,null,415039.804585,0,-0.5881348,100.3809,0.0.0.0,21.117.122.86,1,1,0.97,0
2016-12-15 12:00:34.515,43,CEDEEB1A-3C68-40D6-9507-F36E84055F9B,1481821234.000087,40.81020951740519,-73.96042202606235,79.20142,1.88,228.8671875,64,106.3369624497781,415042.489677625,0.173828125,0.3176116943359375,-0.913116455078125,415042.449910625,0.009084042478260281,-0.07083822078334467,-0.08787739175378065,415042.444916625,1.052923526027216,0.1640376522724791,-0.3192192356796906,0.08641664683818817,-0.2138223797082901,-0.06500594317913055,0.005118478089570999,0.001879010000266135,0.011914923787117,XArbitraryCorrectedZVertical,-0.1775929973847905,-0.009658796617803391,0.4831651728889815,0.8572740813969431,0.1550530344247818,0.3138253390789032,-0.9367348551750183,10.41289901733398,9.65379524230957,-22.77090454101562,2,415041.951819625,unknown,2,2016-12-15 12:00:37.181,null,0,0,0,0,null,415039.804585,0,-0.5881348,100.3809,0.0.0.0,21.117.122.86,1,1,0.97,0
2016-12-15 12:00:34.596,44,CEDEEB1A-3C68-40D6-9507-F36E84055F9B,1481821234.000087,40.81020951740519,-73.96042202606235,79.20142,1.88,228.8671875,64,106.3369624497781,415042.548167625,0.114959716796875,0.2943572998046875,-0.900299072265625,415042.519819625,-0.04828124635037354,0.02836479613821595,-0.1056404099085002,415042.514823625,1.047744942684949,0.1545205961018996,-0.3165909819420183,0.02910999767482281,-0.1061531752347946,-0.07312026619911194,0.01922394335269928,-0.006748090032488108,0.02099580876529217,XArbitraryCorrectedZVertical,-0.1742146645420912,-0.01262305450578462,0.4819740326368132,0.8585982419136845,0.1462576240301132,0.3113287687301636,-0.9389798045158386,10.13129043579102,9.587617874145508,-22.92537689208984,2,415041.951819625,unknown,2,2016-12-15 12:00:37.181,null,0,0,0,0,null,415039.804585,0,-0.5881348,100.3809,0.0.0.0,21.117.122.86,1,1,0.97,0
2016-12-15 12:00:34.623,45,CEDEEB1A-3C68-40D6-9507-F36E84055F9B,1481821234.000087,40.81020951740519,-73.96042202606235,79.20142,1.88,228.8671875,64,106.3369624497781,415042.606614625,0.1177215576171875,0.2868194580078125,-0.89874267578125,415042.589734625,0.001899100173335505,0.2726307302686107,-0.0630008040113505,415042.5847406251,1.042919403062773,0.1509501107579434,-0.3145723289348697,0.06321996450424194,0.1446816027164459,-0.05078144744038582,-0.02860315889120102,-0.01421328168362379,0.04851388558745384,XArbitraryCorrectedZVertical,-0.1725317075720201,-0.01323203369856593,0.4803552898564714,0.8598351694792552,0.1429983079433441,0.3094098269939423,-0.9401154518127441,9.94008731842041,9.564664840698242,-23.01847648620605,2,415041.951819625,unknown,2,2016-12-15 12:00:37.181,null,0,0,0,0,null,415039.804585,0,-0.5881348,100.3809,0.0.0.0,21.117.122.86,1,1,0.97,0
2016-12-15 12:00:34.684,46,CEDEEB1A-3C68-40D6-9507-F36E84055F9B,1481821234.000087,40.81020951740519,-73.96042202606235,79.20142,1.88,228.8671875,64,106.3369624497781,415042.665093625,0.20220947265625,0.326690673828125,-0.9791107177734375,415042.624702625,-0.04260312059021559,0.303191835357815,0.01937369798199944,415042.654667625,1.045440396895396,0.1646541675166307,-0.3123867648019322,-0.08564490079879761,0.1878747493028641,0.1224411949515343,0.02975164540112019,0.007915819995105267,-0.02627917379140854,XArbitraryCorrectedZVertical,-0.1748845690202075,-0.007012566772833056,0.4804071401901912,0.859403974321847,0.155978336930275,0.3073307573795319,-0.9387324452400208,10.08667945861816,9.507201194763184,-22.97847747802734,2,415041.951819625,unknown,2,2016-12-15 12:00:37.181,null,0,0,0,0,null,415039.804585,0,-0.5881348,100.3809,0.0.0.0,21.117.122.86,1,1,0.97,0
2016-12-15 12:00:34.754,47,CEDEEB1A-3C68-40D6-9507-F36E84055F9B,1481821234.000087,40.81020951740519,-73.96042202606235,79.20142,1.88,228.8671875,64,106.3369624497781,415042.723568625,0.1686859130859375,0.3441009521484375,-0.9829254150390625,415042.6946196251,-0.2168193959360381,0.2289863136921741,0.07889428308083438,415042.689625625,1.050699113118511,0.1715137398068248,-0.3162947020820567,-0.1468450576066971,0.1168859750032425,0.1072008088231087,0.03756037354469299,0.04404007270932198,-0.06069676950573921,XArbitraryCorrectedZVertical,-0.1781702956802738,-0.005516082008745854,0.4817667399225386,0.8579776960276512,0.162207692861557,0.3110471963882446,-0.9364498257637024,10.40305709838867,9.545084953308105,-22.8211784362793,2,415041.951819625,unknown,2,2016-12-15 12:00:37.181,null,0,0,0,0,null,415039.804585,0,-0.5881348,100.3809,0.0.0.0,21.117.122.86,1,1,0.97,0
2016-12-15 12:00:34.836,48,CEDEEB1A-3C68-40D6-9507-F36E84055F9B,1481821234.000087,40.81020951740519,-73.96042202606235,79.20142,1.88,228.8671875,64,106.3369624497781,415042.782035625,0.1867523193359375,0.31304931640625,-0.970001220703125,415042.764535625,-0.09701869219547764,0.1049123016664725,-0.06794682678784565,415042.759541625,1.052877925919366,0.1784797445266333,-0.3239218397480478,-0.03666822239756584,0.00463696988299489,-0.05668442696332932,0.016269376501441,0.005001082550734282,-0.03557056933641434,XArbitraryCorrectedZVertical,-0.1830592508270738,-0.004654610483348893,0.4814834046760688,0.8571122308714599,0.1683009415864944,0.3182868957519531,-0.9329352974891663,10.57335090637207,9.720621109008789,-22.66830635070801,2,415041.951819625,unknown,2,2016-12-15 12:00:37.181,null,0,0,0,0,null,415039.804585,0,-0.5881348,100.3809,0.0.0.0,21.117.122.86,1,1,0.97,0
2016-12-15 12:00:34.860,49,CEDEEB1A-3C68-40D6-9507-F36E84055F9B,1481821234.000087,40.81020951740519,-73.96042202606235,79.20142,1.88,228.8671875,64,106.3369624497781,415042.840505625,0.1526336669921875,0.320220947265625,-0.909332275390625,415042.799493625,-0.02291623486402284,-0.09543917135295164,-0.04204305781297193,415042.829457625,1.050017209168783,0.1660445483274604,-0.3207177053849451,0.1183027103543282,-0.2618026733398438,-0.05347626656293869,0.002889517694711685,0.01017644349485636,0.01421929616481066,XArbitraryCorrectedZVertical,-0.1787232195267213,-0.00891780151623678,0.4816277518910636,0.8579121121807948,0.1568547487258911,0.3152477443218231,-0.9359569549560547,10.37362194061279,9.68800163269043,-22.77430534362793,2,415041.951819625,unknown,2,2016-12-15 12:00:37.181,null,0,0,0,0,null,415039.804585,0,-0.5881348,100.3809,0.0.0.0,21.117.122.86,1,1,0.97,0
2016-12-15 12:00:34.915,50,CEDEEB1A-3C68-40D6-9507-F36E84055F9B,1481821234.000087,40.81020951740519,-73.96042202606235,79.20142,1.88,228.8671875,64,106.3369624497781,415042.8989756251,0.149932861328125,0.2910308837890625,-0.8990020751953125,415042.869410625,0.08734422690354679,-0.03197018362196522,-0.0428555882615551,415042.864416625,1.047529430621701,0.157861115418951,-0.3162063895830236,0.1593167334794998,-0.1652458161115646,-0.032793078571558,-0.006681581493467093,-0.01404250040650368,0.03975469246506691,XArbitraryCorrectedZVertical,-0.174857916200603,-0.01107334860104896,0.4816179227623835,0.8586886901356169,0.1494122892618179,0.3109632730484009,-0.9386041760444641,10.19785022735596,9.628005027770996,-22.87889289855957,2,415041.951819625,unknown,2,2016-12-15 12:00:37.181,null,0,0,0,0,null,415039.804585,0,-0.5881348,100.3809,0.0.0.0,21.117.122.86,1,1,0.97,0
2016-12-15 12:00:34.996,51,CEDEEB1A-3C68-40D6-9507-F36E84055F9B,1481821234.000087,40.81020951740519,-73.96042202606235,79.20142,1.88,228.8671875,64,106.3369624497781,415042.957435625,0.1546478271484375,0.2977142333984375,-0.913909912109375,415042.904368625,0.04279087344706618,0.00296303302882216,0.0171038857849249,415042.934332625,1.048191956882611,0.1509252832882661,-0.308169714495247,0.04373388364911079,-0.00682645570486784,0.0532975010573864,-0.00507102906703949,-0.009232442826032639,0.03280224278569221,XArbitraryCorrectedZVertical,-0.1697786591545911,-0.01208693534338294,0.4830766504616711,0.8588748818474308,0.143269881606102,0.3033150732517242,-0.9420582056045532,9.956278800964355,9.389481544494629,-23.0835132598877,2,415041.951819625,unknown,2,2016-12-15 12:00:37.181,null,0,0,0,0,null,415039.804585,0,-0.5881348,100.3809,0.0.0.0,21.117.122.86,1,1,0.97,0
2016-12-15 12:00:35.032,52,CEDEEB1A-3C68-40D6-9507-F36E84055F9B,1481821234.000087,40.81020951740519,-73.96042202606235,79.20142,1.88,228.8671875,64,106.3369624497781,415043.015888625,0.150604248046875,0.32757568359375,-0.924224853515625,415042.974274625,-0.1494169192750047,0.2467834203088466,0.09178504802125392,415042.9692806251,1.051264966375622,0.1544618900711515,-0.3083449874877293,-0.06568426638841629,0.1155955195426941,0.1029243022203445,0.02006400749087334,-0.0007019440527074039,0.02140337973833084,XArbitraryCorrectedZVertical,-0.1706903433045085,-0.01087455074116565,0.4840822909549652,0.8581438611518415,0.1465924829244614,0.3034820854663849,-0.9414930939674377,9.993232727050781,9.357035636901855,-23.08071899414062,2,415041.951819625,unknown,2,2016-12-15 12:00:37.181,null,0,0,0,0,null,415039.804585,0,-0.5881348,100.3809,0.0.0.0,21.117.122.86,1,1,0.97,0
2016-12-15 12:00:35.103,53,CEDEEB1A-3C68-40D6-9507-F36E84055F9B,1481821235.000087,40.81018541943357,-73.96043535328839,80.89111,2.15,222.890625,64,59.23423774028202,415043.0743746251,0.182037353515625,0.320220947265625,-0.9541473388671875,415043.044201625,-0.1683863494035301,0.3052802862846551,0.1048377331559503,415043.074166625,1.067732558588098,0.1773511945405319,-0.3203000147137806,-0.05491985753178596,0.1175438761711121,0.1317735612392426,0.005584424361586571,0.00851292721927166,-0.00861788634210825,XArbitraryCorrectedZVertical,-0.1812247182935377,-0.005567573437134907,0.4882227681285862,0.8536774169944655,0.1674502491950989,0.3148513436317444,-0.9342532157897949,10.4263744354248,9.532105445861816,-22.81595993041992,2,415041.951819625,unknown,2,2016-12-15 12:00:37.181,null,0,0,0,0,null,415039.804585,0,-0.5881348,100.3809,0.0.0.0,21.117.122.86,1,1,0.97,0
2016-12-15 12:00:35.155,54,CEDEEB1A-3C68-40D6-9507-F36E84055F9B,1481821235.000087,40.81018541943357,-73.96043535328839,80.89111,2.15,222.890625,64,59.23423774028202,415043.132846625,0.1820068359375,0.339141845703125,-0.965545654296875,415043.114092625,-0.1145204542472604,0.1327282203040231,0.1158975748469404,415043.109098625,1.073080057712987,0.1814023664455023,-0.321233151239362,-0.04566614329814911,0.01750243082642555,0.1367142051458359,0.02342999540269375,0.01568402722477913,-0.0249894242733717,XArbitraryCorrectedZVertical,-0.18259315267592,-0.004565810041990284,0.4900616932285473,0.8523370406151134,0.1711806058883667,0.31573686003685,-0.9332777857780457,10.66000270843506,9.544093132019043,-22.70270919799805,2,415041.951819625,unknown,2,2016-12-15 12:00:37.181,null,0,0,0,0,null,415039.804585,0,-0.5881348,100.3809,0.0.0.0,21.117.122.86,1,1,0.97,0
2016-12-15 12:00:35.235,55,CEDEEB1A-3C68-40D6-9507-F36E84055F9B,1481821235.000087,40.81018541943357,-73.96043535328839,80.89111,2.15,222.890625,64,59.23423774028202,415043.191300625,0.1944122314453125,0.3263092041015625,-0.9712982177734375,415043.149075625,-0.08091588866431353,0.03619848448468403,0.04394082640576239,415043.1790406251,1.078695581255762,0.1781369897590379,-0.3218042434704805,0.0183911994099617,-0.1820646673440933,0.01948000863194466,0.02702918276190758,0.01216673478484154,-0.04139771312475204,XArbitraryCorrectedZVertical,-0.1820141533121453,-0.006615484339904409,0.4927054630802419,0.8509220939733128,0.1681002080440521,0.3162786960601807,-0.9336541891098022,10.6774206161499,9.531813621520996,-22.69968223571777,2,415041.951819625,unknown,2,2016-12-15 12:00:37.181,null,0,0,0,0,null,415039.804585,0,-0.5881348,100.3809,0.0.0.0,21.117.122.86,1,1,0.97,0
2016-12-15 12:00:35.267,56,CEDEEB1A-3C68-40D6-9507-F36E84055F9B,1481821235.000087,40.81018541943357,-73.96043535328839,80.89111,2.15,222.890625,64,59.23423774028202,415043.249776625,0.1626434326171875,0.3392333984375,-0.95928955078125,415043.218993625,-0.0004801679445412866,-0.1544050199967231,0.03249615793725587,415043.213999625,1.07998423724907,0.1717744334696452,-0.3206543102369903,0.06299934536218643,-0.2695541083812714,0.04370011761784554,0.0267158430069685,0.01951394975185394,-0.02523409388959408,XArbitraryCorrectedZVertical,-0.1799587984807453,-0.009141238232843853,0.4939190206706388,0.8506322763878205,0.1622184813022614,0.3151875734329224,-0.9350625276565552,10.56306743621826,9.507689476013184,-22.76321029663086,2,415041.951819625,unknown,2,2016-12-15 12:00:37.181,null,0,0,0,0,null,415039.804585,0,-0.5881348,100.3809,0.0.0.0,21.117.122.86,1,1,0.97,0
2016-12-15 12:00:35.326,57,CEDEEB1A-3C68-40D6-9507-F36E84055F9B,1481821235.000087,40.81018541943357,-73.96043535328839,80.89111,2.15,222.890625,64,59.23423774028202,415043.308256625,0.152252197265625,0.3090057373046875,-0.927642822265625,415043.288909625,0.1342504831831124,-0.1240340646093504,0.04009708600445103,415043.283915625,1.082850346224605,0.1508300125877464,-0.3151118254658672,0.1986795663833618,-0.273260772228241,0.05863944813609123,-0.007377502974122763,0.01869048923254013,0.008464150130748749,XArbitraryCorrectedZVertical,-0.1724293030777461,-0.01686452885973138,0.4973968355216143,0.8500471228817718,0.1428602933883667,0.3099227845668793,-0.9399674534797668,10.22529315948486,9.416083335876465,-22.95471954345703,2,415041.951819625,unknown,2,2016-12-15 12:00:37.181,null,0,0,0,0,null,415039.804585,0,-0.5881348,100.3809,0.0.0.0,21.117.122.86,1,1,0.97,0
2016-12-15 12:00:35.401,58,CEDEEB1A-3C68-40D6-9507-F36E84055F9B,1481821235.000087,40.81018541943357,-73.96043535328839,80.89111,2.15,222.890625,64,59.23423774028202,415043.366724625,0.1299285888671875,0.3241729736328125,-0.9746246337890625,415043.323844625,0.1657594073042759,-0.07688466172226058,0.1577901640583228,415043.353831625,1.091870854224989,0.13818606147054,-0.2982737747227221,0.1968374103307724,-0.3315816819667816,0.2293214052915573,0.01907706074416637,0.01710348017513752,-0.02381694130599499,XArbitraryCorrectedZVertical,-0.1621315908190284,-0.01861583826582801,0.5034622911409333,0.8484648014050469,0.131664514541626,0.2938706278800964,-0.9467335939407349,9.802162170410156,8.934405326843262,-23.32878684997559,2,415041.951819625,unknown,2,2016-12-15 12:00:37.181,null,0,0,0,0,null,415039.804585,0,-0.5881348,100.3809,0.0.0.0,21.117.122.86,1,1,0.97,0
2016-12-15 12:00:35.477,59,CEDEEB1A-3C68-40D6-9507-F36E84055F9B,1481821235.000087,40.81018541943357,-73.96043535328839,80.89111,2.15,222.890625,64,59.23423774028202,415043.425173625,0.13934326171875,0.3108978271484375,-0.980865478515625,415043.393772625,0.1998617176949586,-0.08542089196429156,0.141733166897908,415043.388778625,1.098364260433591,0.1290302924096336,-0.290353305215476,0.2589547634124756,-0.2432069629430771,0.174128070473671,0.01053289789706469,0.04925001040101051,-0.02035740204155445,XArbitraryCorrectedZVertical,-0.1564363294619479,-0.02094605301769842,0.5074688735337146,0.8470916597877157,0.1232866793870926,0.2862907648086548,-0.9501778483390808,9.627887725830078,8.722711563110352,-23.48098182678223,2,415041.951819625,unknown,2,2016-12-15 12:00:37.181,null,0,0,0,0,null,415040.814931,0,-0.6053543,100.3811,0.0.0.0,21.117.122.86,1,1,0.97,0
2016-12-15 12:00:35.502,60,CEDEEB1A-3C68-40D6-9507-F36E84055F9B,1481821235.000087,40.81018541943357,-73.96043535328839,80.89111,2.15,222.890625,64,59.23423774028202,415043.483621625,0.13055419921875,0.2751312255859375,-0.9787139892578125,415043.463680625,0.294653740903021,-0.1612605292748051,0.1435670196245366,415043.458706625,1.106193047548619,0.1208209432439238,-0.2667612864512161,0.3646484315395355,-0.2520169317722321,0.1666164845228195,0.02805350348353386,0.01745822839438915,-0.02787605300545692,XArbitraryCorrectedZVertical,-0.1443853174300317,-0.01881728337697609,0.5128771266335442,0.8460235475050865,0.1162641271948814,0.2636086642742157,-0.957597553730011,9.479134559631348,8.301558494567871,-23.69321632385254,2,415041.951819625,unknown,2,2016-12-15 12:00:37.181,null,0,0,0,0,null,415040.814931,0,-0.6053543,100.3811,0.0.0.0,21.117.122.86,1,1,0.97,0
2016-12-15 12:00:35.560,61,CEDEEB1A-3C68-40D6-9507-F36E84055F9B,1481821235.000087,40.81018541943357,-73.96043535328839,80.89111,2.15,222.890625,64,59.23423774028202,415043.542080625,0.080047607421875,0.2545166015625,-0.9406890869140625,415043.533616625,0.2671771089883465,-0.3589656191190175,0.133160717665052,415043.528622625,1.11429807487843,0.09183747962913771,-0.2410607949251539,0.3465724885463715,-0.500773012638092,0.149596318602562,-0.005163892637938261,0.01915591023862362,0.03036277741193771,XArbitraryCorrectedZVertical,-0.1260427775787918,-0.02483355125066357,0.5196944424177574,0.8446385022437894,0.08905671536922455,0.2387328892946243,-0.9669930338859558,8.781288146972656,7.358545303344727,-24.26683235168457,2,415041.951819625,unknown,2,2016-12-15 12:00:37.181,null,0,0,0,0,null,415040.814931,0,-0.6053543,100.3811,0.0.0.0,21.117.122.86,1,1,0.97,0
2016-12-15 12:00:35.636,62,CEDEEB1A-3C68-40D6-9507-F36E84055F9B,1481821235.000087,40.81018541943357,-73.96043535328839,80.89111,2.15,222.890625,64,59.23423774028202,415043.600568625,0.0631866455078125,0.2042388916015625,-0.9501953125,415043.568575625,0.2268773564249404,-0.2726211428886864,0.1228239242100184,415043.5635806251,1.118474082450713,0.07769344827131124,-0.2294111821863314,0.3031443953514099,-0.3931384980678558,0.1382764428853989,-0.008916174061596394,0.005505984183400869,0.03200484812259674,XArbitraryCorrectedZVertical,-0.1174142256749359,-0.02797248517186512,0.5228876700753335,0.8438127305070039,0.07558182626962662,0.2274041771888733,-0.970862865447998,8.479877471923828,7.078406810760498,-24.45661926269531,2,415041.951819625,unknown,2,2016-12-15 12:00:37.181,null,0,0,0,0,null,415040.814931,0,-0.6053543,100.3811,0.0.0.0,21.117.122.86,1,1,0.97,0
2016-12-15 12:00:35.716,63,CEDEEB1A-3C68-40D6-9507-F36E84055F9B,1481821235.000087,40.81018541943357,-73.96043535328839,80.89111,2.15,222.890625,64,59.23423774028202,415043.659039625,-0.0071563720703125,0.198333740234375,-0.91705322265625,415043.638492625,0.06722830592574228,-0.3815287188224958,0.0967483813448346,415043.633498625,1.127723577704018,0.04719011389985927,-0.2127415469103244,0.1488086134195328,-0.5148420333862305,0.1217359453439713,-0.03693859651684761,-0.00888518150895834,0.03020059503614902,XArbitraryCorrectedZVertical,-0.1022479237712395,-0.03689943280065362,0.5291683663600755,0.841525183216344,0.04610912874341011,0.2111404240131378,-0.9763675928115845,7.956318855285645,6.648384094238281,-24.7514533996582,2,415041.951819625,unknown,2,2016-12-15 12:00:37.181,null,0,0,0,0,null,415040.814931,0,-0.6053543,100.3811,0.0.0.0,21.117.122.86,1,1,0.97,0
2016-12-15 12:00:35.735,64,CEDEEB1A-3C68-40D6-9507-F36E84055F9B,1481821235.000087,40.81018541943357,-73.96043535328839,80.89111,2.15,222.890625,64,59.23423774028202,415043.717515625,0.0243377685546875,0.1762847900390625,-0.94903564453125,415043.673433625,0.03204661634525049,-0.04614352694336693,0.0574992458314648,415043.703413625,1.133122909220094,0.03322493381562577,-0.2046747479667016,0.09303302317857742,0.04731492698192596,0.05668932572007179,-0.0192808210849762,-0.02432414703071117,0.03393039479851723,XArbitraryCorrectedZVertical,-0.09505420097069159,-0.04088173221860376,0.5324202641460731,0.8401321593507103,0.0325254499912262,0.2032487094402313,-0.9785867929458618,7.309036254882812,6.290146827697754,-25.04297256469727,2,415041.951819625,unknown,2,2016-12-15 12:00:37.181,null,0,0,0,0,null,415040.814931,0,-0.6053543,100.3811,0.0.0.0,21.117.122.86,1,1,0.97,0
2016-12-15 12:00:35.796,65,CEDEEB1A-3C68-40D6-9507-F36E84055F9B,1481821235.000087,40.81018541943357,-73.96043535328839,80.89111,2.15,222.890625,64,59.23423774028202,415043.77590975,-0.0302276611328125,0.1661529541015625,-0.92059326171875,415043.743346625,-0.04679280561712824,0.08544139830468518,-0.03704590234354724,415043.738352625,1.134274199426791,0.03392516768506239,-0.2027237547278234,0.02954975888133049,-0.03197542205452919,0.002959945937618613,-0.01125141140073538,-0.01707291416823864,0.03007514029741287,XArbitraryCorrectedZVertical,-0.09439973475520404,-0.04011971926554731,0.5329376477656366,0.8399146157784508,0.03322406858205795,0.2013380527496338,-0.9789581894874573,7.341190814971924,6.228866577148438,-25.04888343811035,2,415041.951819625,unknown,2,2016-12-15 12:00:37.181,null,0,0,0,0,null,415040.814931,0,-0.6053543,100.3811,0.0.0.0,21.117.122.86,1,1,0.97,0
2016-12-15 12:00:35.876,66,CEDEEB1A-3C68-40D6-9507-F36E84055F9B,1481821235.000087,40.81018541943357,-73.96043535328839,80.89111,2.15,222.890625,64,59.23423774028202,415043.8343927501,0.0497589111328125,0.1959381103515625,-0.927490234375,415043.81320075,-0.1076199375467561,0.4519741233450538,-0.1178310297983379,415043.80820675,1.127662214198793,0.0400584388041467,-0.201849103948059,-0.03135137632489204,0.3336152732372284,-0.1024006828665733,0.01580379344522953,-0.01595669984817505,0.04751511290669441,XArbitraryCorrectedZVertical,-0.09579001039627641,-0.03699290619460769,0.5298965609745875,0.8418226852888293,0.03923466056585312,0.2004812359809875,-0.9789115786552429,7.34353494644165,6.226632118225098,-25.04875183105469,2,415041.951819625,unknown,2,2016-12-15 12:00:37.181,null,0,0,0,0,null,415040.814931,0,-0.6053543,100.3811,0.0.0.0,21.117.122.86,1,1,0.97,0
2016-12-15 12:00:35.912,67,CEDEEB1A-3C68-40D6-9507-F36E84055F9B,1481821235.000087,40.81018541943357,-73.96043535328839,80.89111,2.15,222.890625,64,59.23423774028202,415043.89285575,0.04351806640625,0.2005157470703125,-0.9640045166015625,415043.88311375,-0.1407179698903698,0.4820318909882331,-0.1497575375784258,415043.87812375,1.120556522308817,0.0578814863828656,-0.2059697226906486,-0.06556728482246399,0.3434157371520996,-0.124795563519001,-0.02386580035090446,0.00288097932934761,0.02556369639933109,XArbitraryCorrectedZVertical,-0.1023447555592298,-0.03022622950377681,0.5258650145629588,0.8438470907209661,0.05662642046809196,0.2045164853334427,-0.9772238731384277,7.733805656433105,6.306213855743408,-24.91100692749023,2,415041.951819625,unknown,2,2016-12-15 12:00:37.181,null,0,0,0,0,null,415040.814931,0,-0.6053543,100.3811,0.0.0.0,21.117.122.86,1,1,0.97,0
2016-12-15 12:00:35.971,68,CEDEEB1A-3C68-40D6-9507-F36E84055F9B,1481821235.000087,40.81018541943357,-73.96043535328839,80.89111,2.15,222.890625,64,59.23423774028202,415043.9513277501,0.08673095703125,0.215423583984375,-0.967010498046875,415043.91809275,-0.1889656604110084,0.4653703562603704,-0.18828069537864,415043.9130987501,1.115614846145928,0.06987871260278963,-0.2091361465904387,-0.1084163039922714,0.3437691032886505,-0.1653864681720734,0.005948785692453384,-0.01056294515728951,0.01319205667823553,XArbitraryCorrectedZVertical,-0.106891360198466,-0.02574094086757172,0.5230211803222424,0.8451984891210674,0.06830048561096191,0.2076149433851242,-0.9758232831954956,8.079780578613281,6.450922966003418,-24.76370429992676,2,415041.951819625,unknown,2,2016-12-15 12:00:37.181,null,0,0,0,0,null,415040.814931,0,-0.6053543,100.3811,0.0.0.0,21.117.122.86,1,1,0.97,0
